lat,lon,label,placename,weeklyactive,totalactive,weeklyrecovered,totalrecovered,weeklydeaths,totaldeaths,weight,timestamp,reserved
2.965359,101.670893,Daerah: Putrajaya<br>No:1<br>Hex coord:(6;3),Playground p11d/14. Putrajaya. Selangor. Malaysia,147,0,0,0,0,0,1,2022-08-10T18:40:08.0781967Z,0
2.957579,101.684383,Daerah: Putrajaya<br>No:2<br>Hex coord:(7;3),Petronas Precint 11. Jalan P11 A2/3. Putrajaya. Selangor. Malaysia,79,0,0,0,0,0,1,2022-08-10T18:40:08.9375176Z,0
2.965359,101.697873,Daerah: Putrajaya<br>No:3<br>Hex coord:(8;3),Persiaran Persekutuan. Precinct 13. 62502 Putrajaya. WP. Malaysia,24,0,0,0,0,0,1,2022-08-10T18:40:09.7977184Z,0
2.957579,101.711363,Daerah: Putrajaya<br>No:4<br>Hex coord:(9;3),Persiaran Utara. Precinct 12. 62500 Putrajaya. WP. Malaysia,7,0,0,0,0,0,1,2022-08-10T18:40:10.5823837Z,0
2.942019,101.684383,Daerah: Putrajaya<br>No:5<br>Hex coord:(7;4),Lebuh Perdana Barat. Putrajaya. Selangor. Malaysia,121,0,0,0,0,0,1,2022-08-10T18:40:47.4830768Z,0
2.949799,101.697873,Daerah: Putrajaya<br>No:6<br>Hex coord:(8;4),Precinct 12. 62519 Putrajaya. WP. Malaysia,0,0,0,0,0,0,1,2022-08-10T18:40:48.3188458Z,0
2.942019,101.711363,Daerah: Putrajaya<br>No:7<br>Hex coord:(9;4),AEON BiG. Putrajaya. WP. Malaysia,91,0,0,0,0,0,1,2022-08-10T18:40:49.6616816Z,0
2.949799,101.724853,Daerah: Putrajaya<br>No:8<br>Hex coord:(10;4),148 P14G1. 62050 Putrajaya. Selangor. Malaysia,78,0,0,0,0,0,1,2022-08-10T18:40:50.4535049Z,0
2.934239,101.670893,Daerah: Putrajaya<br>No:9<br>Hex coord:(6;5),Precinct 7. 62250 Putrajaya. WP. Malaysia,55,0,0,0,0,0,1,2022-08-10T18:40:51.2354456Z,0
2.926459,101.684383,Daerah: Putrajaya<br>No:10<br>Hex coord:(7;5),Putrajaya Lake. Jalan P2 P. Precinct 2. 62675 Putrajaya. WP. Malaysia,37,0,0,0,0,0,1,2022-08-10T18:40:52.0154406Z,0
2.934239,101.697873,Daerah: Putrajaya<br>No:11<br>Hex coord:(8;5),Seri Bakti Bridge. Lebuh Perdana Selatan. Precinct 16. 62150 Putrajaya. WP. Malaysia,33,0,0,0,0,0,1,2022-08-10T18:40:52.7753457Z,0
2.926459,101.711363,Daerah: Putrajaya<br>No:12<br>Hex coord:(9;5),IPB Putrajaya. Persiaran Timur. Putrajaya. Selangor. Malaysia,75,0,0,0,0,0,1,2022-08-10T18:40:53.5417876Z,0
2.934239,101.724853,Daerah: Putrajaya<br>No:13<br>Hex coord:(10;5),Precinct 15. 62000 Putrajaya. WP. Malaysia,22,0,0,0,0,0,1,2022-08-10T18:40:54.3005646Z,0
2.918679,101.670893,Daerah: Putrajaya<br>No:14<br>Hex coord:(6;6),Perdana Lakeview East. 62100 Cyberjaya. Selangor. Malaysia,4,0,0,0,0,0,1,2022-08-10T18:40:55.0678470Z,0
2.910899,101.684383,Daerah: Putrajaya<br>No:15<br>Hex coord:(7;6),Jalan Tun Hussein. Precinct 4. 62100 Putrajaya. WP. Malaysia,17,0,0,0,0,0,1,2022-08-10T18:40:55.8296766Z,0
2.918679,101.697873,Daerah: Putrajaya<br>No:16<br>Hex coord:(8;6),Jalan P18 D1/2. Precinct 18. Putrajaya. Malaysia,153,0,0,0,0,0,1,2022-08-10T18:40:56.6170177Z,0
2.903119,101.670893,Daerah: Putrajaya<br>No:17<br>Hex coord:(6;7),Marina Putrajaya. WP. Putrajaya. Malaysia,1,0,0,0,0,0,1,2022-08-10T18:40:57.3725700Z,0
2.895339,101.684383,Daerah: Putrajaya<br>No:18<br>Hex coord:(7;7),Putrajaya Equestrian Park. Persiaran Timur. 62100 Putrajaya. WP. Malaysia,31,0,0,0,0,0,1,2022-08-10T18:40:58.1013681Z,0
2.903119,101.697873,Daerah: Putrajaya<br>No:19<br>Hex coord:(8;7),Putrajaya. WP. Malaysia,3,0,0,0,0,0,1,2022-08-10T18:40:58.8481757Z,0
2.887559,101.670893,Daerah: Putrajaya<br>No:20<br>Hex coord:(6;8),Precinct 20,25,0,0,0,0,0,1,2022-08-10T18:40:59.5955527Z,0