lat,lon,label,placename,weeklyactive,totalactive,weeklyrecovered,totalrecovered,weeklydeaths,totaldeaths,weight,timestamp,reserved
2.965359,101.670893,Daerah: Putrajaya<br>No:17<br>Hex coord:(6;3),Playground p11d/14. Putrajaya. Selangor. Malaysia,86,0,0,0,0,0,1,2022-07-15T20:36:56.0499575Z,0
2.957579,101.684383,Daerah: Putrajaya<br>No:18<br>Hex coord:(7;3),Petronas Precint 11. Jalan P11 A2/3. Putrajaya. Selangor. Malaysia,66,0,0,0,0,0,1,2022-07-15T20:36:57.0229836Z,0
2.965359,101.697873,Daerah: Putrajaya<br>No:19<br>Hex coord:(8;3),Persiaran Persekutuan. Precinct 13. 62502 Putrajaya. WP. Malaysia,0,0,0,0,0,0,1,2022-07-15T20:36:57.7718713Z,0
2.957579,101.711363,Daerah: Putrajaya<br>No:20<br>Hex coord:(9;3),Persiaran Utara. Precinct 12. 62500 Putrajaya. WP. Malaysia,13,0,0,0,0,0,1,2022-07-15T20:36:58.5196710Z,0
2.942019,101.684383,Daerah: Putrajaya<br>No:29<br>Hex coord:(7;4),Lebuh Perdana Barat. Putrajaya. Selangor. Malaysia,100,0,0,0,0,0,1,2022-07-15T20:36:59.4339473Z,0
2.949799,101.697873,Daerah: Putrajaya<br>No:30<br>Hex coord:(8;4),Precinct 12. 62519 Putrajaya. WP. Malaysia,0,0,0,0,0,0,1,2022-07-15T20:37:00.4799993Z,0
2.942019,101.711363,Daerah: Putrajaya<br>No:31<br>Hex coord:(9;4),AEON BiG. Putrajaya. WP. Malaysia,81,0,0,0,0,0,1,2022-07-15T20:37:01.2235961Z,0
2.949799,101.724853,Daerah: Putrajaya<br>No:32<br>Hex coord:(10;4),148 P14G1. 62050 Putrajaya. Selangor. Malaysia,46,0,0,0,0,0,1,2022-07-15T20:37:01.9654085Z,0
2.934239,101.670893,Daerah: Putrajaya<br>No:39<br>Hex coord:(6;5),Precinct 7. 62250 Putrajaya. WP. Malaysia,38,0,0,0,0,0,1,2022-07-15T20:37:02.7551283Z,0
2.926459,101.684383,Daerah: Putrajaya<br>No:40<br>Hex coord:(7;5),Putrajaya Lake. Jalan P2 P. Precinct 2. 62675 Putrajaya. WP. Malaysia,35,0,0,0,0,0,1,2022-07-15T20:37:03.5007611Z,0
2.934239,101.697873,Daerah: Putrajaya<br>No:41<br>Hex coord:(8;5),Seri Bakti Bridge. Lebuh Perdana Selatan. Precinct 16. 62150 Putrajaya. WP. Malaysia,22,0,0,0,0,0,1,2022-07-15T20:37:04.2454478Z,0
2.926459,101.711363,Daerah: Putrajaya<br>No:42<br>Hex coord:(9;5),IPB Putrajaya. Persiaran Timur. Putrajaya. Selangor. Malaysia,70,0,0,0,0,0,1,2022-07-15T20:37:04.9941186Z,0
2.934239,101.724853,Daerah: Putrajaya<br>No:43<br>Hex coord:(10;5),Precinct 15. 62000 Putrajaya. WP. Malaysia,23,0,0,0,0,0,1,2022-07-15T20:37:05.7250137Z,0
2.918679,101.670893,Daerah: Putrajaya<br>No:50<br>Hex coord:(6;6),Perdana Lakeview East. 62100 Cyberjaya. Selangor. Malaysia,4,0,0,0,0,0,1,2022-07-15T20:37:06.4731365Z,0
2.910899,101.684383,Daerah: Putrajaya<br>No:51<br>Hex coord:(7;6),Jalan Tun Hussein. Precinct 4. 62100 Putrajaya. WP. Malaysia,11,0,0,0,0,0,1,2022-07-15T20:37:07.2155691Z,0
2.918679,101.697873,Daerah: Putrajaya<br>No:52<br>Hex coord:(8;6),Jalan P18 D1/2. Precinct 18. Putrajaya. Malaysia,100,0,0,0,0,0,1,2022-07-15T20:37:07.9864817Z,0
2.903119,101.670893,Daerah: Putrajaya<br>No:61<br>Hex coord:(6;7),Marina Putrajaya. WP. Putrajaya. Malaysia,10,0,0,0,0,0,1,2022-07-15T20:37:08.7219813Z,0
2.895339,101.684383,Daerah: Putrajaya<br>No:62<br>Hex coord:(7;7),Putrajaya Equestrian Park. Persiaran Timur. 62100 Putrajaya. WP. Malaysia,22,0,0,0,0,0,1,2022-07-15T20:37:09.4526034Z,0
2.903119,101.697873,Daerah: Putrajaya<br>No:63<br>Hex coord:(8;7),Putrajaya. WP. Malaysia,1,0,0,0,0,0,1,2022-07-15T20:37:10.2009174Z,0