lat,lon,label,placename,weeklyactive,totalactive,weeklyrecovered,totalrecovered,weeklydeaths,totaldeaths,weight,timestamp,reserved
2.965359,101.670893,Daerah: Putrajaya<br>No:1<br>Hex coord:(6;3),Playground p11d/14. Putrajaya. Selangor. Malaysia,212,0,0,0,0,0,1,2022-11-27T18:40:04.7472239Z,0
2.957579,101.684383,Daerah: Putrajaya<br>No:2<br>Hex coord:(7;3),Petronas Precint 11. Jalan P11 A2/3. Putrajaya. Selangor. Malaysia,119,0,0,0,0,0,1,2022-11-27T18:40:05.7271627Z,0
2.965359,101.697873,Daerah: Putrajaya<br>No:3<br>Hex coord:(8;3),Persiaran Persekutuan. Precinct 13. 62502 Putrajaya. WP. Malaysia,30,0,0,0,0,0,1,2022-11-27T18:40:06.6444417Z,0
2.957579,101.711363,Daerah: Putrajaya<br>No:4<br>Hex coord:(9;3),Persiaran Utara. Precinct 12. 62500 Putrajaya. WP. Malaysia,15,0,0,0,0,0,1,2022-11-27T18:40:07.5714375Z,0
2.942019,101.684383,Daerah: Putrajaya<br>No:5<br>Hex coord:(7;4),Lebuh Perdana Barat. Putrajaya. Selangor. Malaysia,277,0,0,0,0,0,1,2022-11-27T18:40:08.6260126Z,0
2.949799,101.697873,Daerah: Putrajaya<br>No:6<br>Hex coord:(8;4),Precinct 12. 62519 Putrajaya. WP. Malaysia,0,0,0,0,0,0,1,2022-11-27T18:40:09.5130668Z,0
2.942019,101.711363,Daerah: Putrajaya<br>No:7<br>Hex coord:(9;4),AEON BiG. Putrajaya. WP. Malaysia,134,0,0,0,0,0,1,2022-11-27T18:40:10.4317081Z,0
2.949799,101.724853,Daerah: Putrajaya<br>No:8<br>Hex coord:(10;4),148 P14G1. 62050 Putrajaya. Selangor. Malaysia,96,0,0,0,0,0,1,2022-11-27T18:40:11.3131361Z,0
2.934239,101.670893,Daerah: Putrajaya<br>No:9<br>Hex coord:(6;5),Precinct 7. 62250 Putrajaya. WP. Malaysia,116,0,0,0,0,0,1,2022-11-27T18:40:12.2697536Z,0
2.926459,101.684383,Daerah: Putrajaya<br>No:10<br>Hex coord:(7;5),Putrajaya Lake. Jalan P2 P. Precinct 2. 62675 Putrajaya. WP. Malaysia,78,0,0,0,0,0,1,2022-11-27T18:40:13.1716418Z,0
2.934239,101.697873,Daerah: Putrajaya<br>No:11<br>Hex coord:(8;5),Seri Bakti Bridge. Lebuh Perdana Selatan. Precinct 16. 62150 Putrajaya. WP. Malaysia,44,0,0,0,0,0,1,2022-11-27T18:40:14.0771156Z,0
2.926459,101.711363,Daerah: Putrajaya<br>No:12<br>Hex coord:(9;5),IPB Putrajaya. Persiaran Timur. Putrajaya. Selangor. Malaysia,142,0,0,0,0,0,1,2022-11-27T18:40:14.9642939Z,0
2.934239,101.724853,Daerah: Putrajaya<br>No:13<br>Hex coord:(10;5),Precinct 15. 62000 Putrajaya. WP. Malaysia,51,0,0,0,0,0,1,2022-11-27T18:40:15.8570687Z,0
2.918679,101.670893,Daerah: Putrajaya<br>No:14<br>Hex coord:(6;6),Perdana Lakeview East. 62100 Cyberjaya. Selangor. Malaysia,7,0,0,0,0,0,1,2022-11-27T18:40:16.7794113Z,0
2.910899,101.684383,Daerah: Putrajaya<br>No:15<br>Hex coord:(7;6),Jalan Tun Hussein. Precinct 4. 62100 Putrajaya. WP. Malaysia,63,0,0,0,0,0,1,2022-11-27T18:40:17.6442831Z,0
2.918679,101.697873,Daerah: Putrajaya<br>No:16<br>Hex coord:(8;6),Jalan P18 D1/2. Precinct 18. Putrajaya. Malaysia,276,0,0,0,0,0,1,2022-11-27T18:40:18.6217887Z,0
2.903119,101.670893,Daerah: Putrajaya<br>No:17<br>Hex coord:(6;7),Marina Putrajaya. WP. Putrajaya. Malaysia,11,0,0,0,0,0,1,2022-11-27T18:40:19.4806026Z,0
2.895339,101.684383,Daerah: Putrajaya<br>No:18<br>Hex coord:(7;7),Putrajaya Equestrian Park. Persiaran Timur. 62100 Putrajaya. WP. Malaysia,34,0,0,0,0,0,1,2022-11-27T18:40:20.3120083Z,0
2.903119,101.697873,Daerah: Putrajaya<br>No:19<br>Hex coord:(8;7),Putrajaya. WP. Malaysia,5,0,0,0,0,0,1,2022-11-27T18:40:21.1935204Z,0
2.887559,101.670893,Daerah: Putrajaya<br>No:20<br>Hex coord:(6;8),Precinct 20,69,0,0,0,0,0,1,2022-11-27T18:40:22.0063959Z,0