lat,lon,label,placename,weeklyactive,totalactive,weeklyrecovered,totalrecovered,weeklydeaths,totaldeaths,weight,timestamp,reserved
2.965359,101.670893,Daerah: Putrajaya<br>No:17<br>Hex coord:(6;3),Playground p11d/14. Putrajaya. Selangor. Malaysia,85 ,0,0,0,0,0,1,2022-04-24T03:00:06.3220319Z,0
2.957579,101.684383,Daerah: Putrajaya<br>No:18<br>Hex coord:(7;3),Petronas Precint 11. Jalan P11 A2/3. Putrajaya. Selangor. Malaysia,35 ,0,0,0,0,0,1,2022-04-24T03:00:07.1895529Z,0
2.965359,101.697873,Daerah: Putrajaya<br>No:19<br>Hex coord:(8;3),Persiaran Persekutuan. Precinct 13. 62502 Putrajaya. WP. Malaysia,1 ,0,0,0,0,0,1,2022-04-24T03:00:09.0549570Z,0
2.957579,101.711363,Daerah: Putrajaya<br>No:20<br>Hex coord:(9;3),Persiaran Utara. Precinct 12. 62500 Putrajaya. WP. Malaysia,6 ,0,0,0,0,0,1,2022-04-24T03:00:09.9014849Z,0
2.942019,101.684383,Daerah: Putrajaya<br>No:29<br>Hex coord:(7;4),Lebuh Perdana Barat. Putrajaya. Selangor. Malaysia,71 ,0,0,0,0,0,1,2022-04-24T03:00:10.6971377Z,0
2.949799,101.697873,Daerah: Putrajaya<br>No:30<br>Hex coord:(8;4),Precinct 12. 62519 Putrajaya. WP. Malaysia,15 ,0,0,0,0,0,1,2022-04-24T03:00:11.4197837Z,0
2.942019,101.711363,Daerah: Putrajaya<br>No:31<br>Hex coord:(9;4),AEON BiG. Putrajaya. WP. Malaysia,46 ,0,0,0,0,0,1,2022-04-24T03:00:12.2604435Z,0
2.949799,101.724853,Daerah: Putrajaya<br>No:32<br>Hex coord:(10;4),148 P14G1. 62050 Putrajaya. Selangor. Malaysia,19 ,0,0,0,0,0,1,2022-04-24T03:00:12.9854466Z,0
2.934239,101.670893,Daerah: Putrajaya<br>No:39<br>Hex coord:(6;5),Precinct 7. 62250 Putrajaya. WP. Malaysia,23 ,0,0,0,0,0,1,2022-04-24T03:00:13.7453485Z,0
2.926459,101.684383,Daerah: Putrajaya<br>No:40<br>Hex coord:(7;5),Putrajaya Lake. Jalan P2 P. Precinct 2. 62675 Putrajaya. WP. Malaysia,31 ,0,0,0,0,0,1,2022-04-24T03:00:14.4644057Z,0
2.934239,101.697873,Daerah: Putrajaya<br>No:41<br>Hex coord:(8;5),Seri Bakti Bridge. Lebuh Perdana Selatan. Precinct 16. 62150 Putrajaya. WP. Malaysia,8 ,0,0,0,0,0,1,2022-04-24T03:00:15.2067219Z,0
2.926459,101.711363,Daerah: Putrajaya<br>No:42<br>Hex coord:(9;5),IPB Putrajaya. Persiaran Timur. Putrajaya. Selangor. Malaysia,28 ,0,0,0,0,0,1,2022-04-24T03:00:15.9457687Z,0
2.934239,101.724853,Daerah: Putrajaya<br>No:43<br>Hex coord:(10;5),Precinct 15. 62000 Putrajaya. WP. Malaysia,16 ,0,0,0,0,0,1,2022-04-24T03:00:16.6717863Z,0
2.918679,101.670893,Daerah: Putrajaya<br>No:50<br>Hex coord:(6;6),Perdana Lakeview East. 62100 Cyberjaya. Selangor. Malaysia,18 ,0,0,0,0,0,1,2022-04-24T03:00:17.3963850Z,0
2.910899,101.684383,Daerah: Putrajaya<br>No:51<br>Hex coord:(7;6),Jalan Tun Hussein. Precinct 4. 62100 Putrajaya. WP. Malaysia,7 ,0,0,0,0,0,1,2022-04-24T03:00:18.1316736Z,0
2.918679,101.697873,Daerah: Putrajaya<br>No:52<br>Hex coord:(8;6),Jalan P18 D1/2. Precinct 18. Putrajaya. Malaysia,54 ,0,0,0,0,0,1,2022-04-24T03:00:18.8874829Z,0
2.903119,101.670893,Daerah: Putrajaya<br>No:61<br>Hex coord:(6;7),Marina Putrajaya. WP. Putrajaya. Malaysia,1 ,0,0,0,0,0,1,2022-04-24T03:00:19.6160972Z,0
2.895339,101.684383,Daerah: Putrajaya<br>No:62<br>Hex coord:(7;7),Putrajaya Equestrian Park. Persiaran Timur. 62100 Putrajaya. WP. Malaysia,10 ,0,0,0,0,0,1,2022-04-24T03:00:20.4703070Z,0
2.903119,101.697873,Daerah: Putrajaya<br>No:63<br>Hex coord:(8;7),Putrajaya. WP. Malaysia,16 ,0,0,0,0,0,1,2022-04-24T03:00:21.3073283Z,0